[
  {"id":1, "name":"Albania", "address":"Tirana", "lat":41.3275, "lng":19.8187},
  {"id":2, "name":"Andorra", "address":"Andorra la Vella", "lat":42.5063, "lng":1.5218},
  {"id":3, "name":"Austria", "address":"Vienna", "lat":48.2082, "lng":16.3738},
  {"id":4, "name":"Belarus", "address":"Minsk", "lat":53.9000, "lng":27.5667},
  {"id":5, "name":"Belgium", "address":"Brussels", "lat":50.8503, "lng":4.3517},
  {"id":6, "name":"Bosnia and Herzegovina", "address":"Sarajevo", "lat":43.8563, "lng":18.4131},
  {"id":7, "name":"Bulgaria", "address":"Sofia", "lat":42.6977, "lng":23.3219},
  {"id":8, "name":"Croatia", "address":"Zagreb", "lat":45.8150, "lng":15.9819},
  {"id":9, "name":"Cyprus", "address":"Nicosia", "lat":35.1856, "lng":33.3823},
  {"id":10, "name":"Czech Republic", "address":"Prague", "lat":50.0755, "lng":14.4378},
  {"id":11, "name":"Denmark", "address":"Copenhagen", "lat":55.6761, "lng":12.5683},
  {"id":12, "name":"Estonia", "address":"Tallinn", "lat":59.4370, "lng":24.7536},
  {"id":13, "name":"Finland", "address":"Helsinki", "lat":60.1695, "lng":24.9354},
  {"id":14, "name":"France", "address":"Paris", "lat":48.8566, "lng":2.3522},
  {"id":15, "name":"Germany", "address":"Berlin", "lat":52.5200, "lng":13.4050},
  {"id":16, "name":"Greece", "address":"Athens", "lat":37.9838, "lng":23.7275},
  {"id":17, "name":"Hungary", "address":"Budapest", "lat":47.4979, "lng":19.0402},
  {"id":18, "name":"Iceland", "address":"Reykjavik", "lat":64.1466, "lng":-21.9426},
  {"id":19, "name":"Ireland", "address":"Dublin", "lat":53.3498, "lng":-6.2603},
  {"id":20, "name":"Italy", "address":"Rome", "lat":41.9028, "lng":12.4964},
  {"id":21, "name":"Kosovo", "address":"Pristina", "lat":42.6629, "lng":21.1655},
  {"id":22, "name":"Latvia", "address":"Riga", "lat":56.9496, "lng":24.1052},
  {"id":23, "name":"Liechtenstein", "address":"Vaduz", "lat":47.1410, "lng":9.5209},
  {"id":24, "name":"Lithuania", "address":"Vilnius", "lat":54.6872, "lng":25.2797},
  {"id":25, "name":"Luxembourg", "address":"Luxembourg", "lat":49.6116, "lng":6.1319},
  {"id":26, "name":"Malta", "address":"Valletta", "lat":35.8989, "lng":14.5146},
  {"id":27, "name":"Moldova", "address":"Chisinau", "lat":47.0105, "lng":28.8638},
  {"id":28, "name":"Monaco", "address":"Monaco", "lat":43.7384, "lng":7.4246},
  {"id":29, "name":"Montenegro", "address":"Podgorica", "lat":42.4304, "lng":19.2594},
  {"id":30, "name":"Netherlands", "address":"Amsterdam", "lat":52.3676, "lng":4.9041},
  {"id":31, "name":"North Macedonia", "address":"Skopje", "lat":41.9981, "lng":21.4254},
  {"id":32, "name":"Norway", "address":"Oslo", "lat":59.9139, "lng":10.7522},
  {"id":33, "name":"Poland", "address":"Warsaw", "lat":52.2297, "lng":21.0122},
  {"id":34, "name":"Portugal", "address":"Lisbon", "lat":38.7223, "lng":-9.1393},
  {"id":35, "name":"Romania", "address":"Bucharest", "lat":44.4268, "lng":26.1025},
  {"id":36, "name":"Russia", "address":"Moscow", "lat":55.7558, "lng":37.6173},
  {"id":37, "name":"San Marino", "address":"San Marino", "lat":43.9356, "lng":12.4473},
  {"id":38, "name":"Serbia", "address":"Belgrade", "lat":44.7872, "lng":20.4573},
  {"id":39, "name":"Slovakia", "address":"Bratislava", "lat":48.1486, "lng":17.1077},
  {"id":40, "name":"Slovenia", "address":"Ljubljana", "lat":46.0569, "lng":14.5058},
  {"id":41, "name":"Spain", "address":"Madrid", "lat":40.4168, "lng":-3.7038},
  {"id":42, "name":"Sweden", "address":"Stockholm", "lat":59.3293, "lng":18.0686},
  {"id":43, "name":"Switzerland", "address":"Bern", "lat":46.9481, "lng":7.4474},
  {"id":44, "name":"Turkey", "address":"Ankara", "lat":39.9334, "lng":32.8597},
  {"id":45, "name":"Ukraine", "address":"Kyiv", "lat":50.4501, "lng":30.5234},
  {"id":46, "name":"United Kingdom", "address":"London", "lat":51.5074, "lng":-0.1278},
  {"id":47, "name":"Vatican City", "address":"Vatican City", "lat":41.9029, "lng":12.4534},
  { "id":48, "name":"United States", "address":"Washington, D.C.", "lat":38.9072, "lng":-77.0369 },
  { "id":49, "name":"Canada", "address":"Ottawa", "lat":45.4215, "lng":-75.6972 },
  { "id":50, "name":"Mexico", "address":"Mexico City", "lat":19.4326, "lng":-99.1332 }
]
